{
  "stations": [
    {
      "name": "四灶浦闸",
      "lon": 121.3614,
      "lat": 30.3427,
      "waterQuality": "Ⅰ",
      "targetClassify": "Ⅳ",
      "wt": 8.66,
      "nh3h": 0.025,
      "ec": 2101.07,
      "thm": 12.28,
      "do2": 11.935,
      "tp": 0.0466,
      "ph": 8.61,
      "tn": 0.804,
      "codmn": 4.422
    },
    {
      "name": "大嵩",
      "lon": 121.7798,
      "lat": 29.7124,
      "waterQuality": "Ⅱ",
      "targetClassify": "Ⅳ",
      "wt": 8.66,
      "nh3h": 0.025,
      "ec": 2101.07,
      "thm": 12.28,
      "do2": 11.935,
      "tp": 0.0466,
      "ph": 8.61,
      "tn": 0.804,
      "codmn": 4.422
    },
    {
      "name": "浮礁渡",
      "lon": 121.8235,
      "lat": 29.2331,
      "waterQuality": "Ⅲ",
      "targetClassify": "Ⅳ",
      "wt": 8.66,
      "nh3h": 0.025,
      "ec": 2101.07,
      "thm": 12.28,
      "do2": 11.935,
      "tp": 0.0466,
      "ph": 8.61,
      "tn": 0.804,
      "codmn": 4.422
    },
    {
      "name": "北湖中心",
      "lon": 121.6782,
      "lat": 29.7804,
      "waterQuality": "Ⅳ",
      "targetClassify": "-",
      "wt": 8.66,
      "nh3h": 0.025,
      "ec": 2101.07,
      "thm": 12.28,
      "do2": 11.935,
      "tp": 0.0466,
      "ph": 8.61,
      "tn": 0.804,
      "codmn": 4.422
    },
    {
      "name": "梁桥",
      "lon": 121.3775,
      "lat": 29.78,
      "waterQuality": "Ⅴ",
      "targetClassify": "-",
      "wt": 8.66,
      "nh3h": 0.025,
      "ec": 2101.07,
      "thm": 12.28,
      "do2": 11.935,
      "tp": 0.0466,
      "ph": 8.61,
      "tn": 0.804,
      "codmn": 4.422
    },
    {
      "name": "溪口",
      "lon": 121.2688,
      "lat": 29.6805,
      "waterQuality": "劣Ⅴ",
      "targetClassify": "-",
      "wt": 8.66,
      "nh3h": 0.025,
      "ec": 2101.07,
      "thm": 12.28,
      "do2": 11.935,
      "tp": 0.0466,
      "ph": 8.61,
      "tn": 0.804,
      "codmn": 4.422
    },
    {
      "name": "浦口闸",
      "lon": 121.2273,
      "lat": 30.0243,
      "waterQuality": "Ⅲ",
      "targetClassify": "Ⅲ",
      "wt": 8.66,
      "nh3h": 0.025,
      "ec": 2101.07,
      "thm": 12.28,
      "do2": 11.935,
      "tp": 0.0466,
      "ph": 8.61,
      "tn": 0.804,
      "codmn": 4.422
    },
    {
      "name": "清林渡",
      "lon": 121.3814,
      "lat": 29.9555,
      "waterQuality": "Ⅲ",
      "targetClassify": "Ⅲ",
      "wt": 8.66,
      "nh3h": 0.025,
      "ec": 2101.07,
      "thm": 12.28,
      "do2": 11.935,
      "tp": 0.0466,
      "ph": 8.61,
      "tn": 0.804,
      "codmn": 4.422
    },
    {
      "name": "水车",
      "lon": 121.454,
      "lat": 29.256,
      "waterQuality": "Ⅲ",
      "targetClassify": "Ⅲ",
      "wt": 8.66,
      "nh3h": 0.025,
      "ec": 2101.07,
      "thm": 12.28,
      "do2": 11.935,
      "tp": 0.0466,
      "ph": 8.61,
      "tn": 0.804,
      "codmn": 4.422
    },
    {
      "name": "长汀",
      "lon": 121.4081,
      "lat": 29.6333,
      "waterQuality": "Ⅲ",
      "targetClassify": "Ⅲ",
      "wt": 8.66,
      "nh3h": 0.025,
      "ec": 2101.07,
      "thm": 12.28,
      "do2": 11.935,
      "tp": 0.0466,
      "ph": 8.61,
      "tn": 0.804,
      "codmn": 4.422
    }
  ]
}
